{"type": "FeatureCollection", "features": [
{"type": "Feature", "geometry": {"type": "Point", "coordinates": [-122.677, 45.513]}, "properties": {"Name": "Mika Sushi", "Address": "1425 SW 2nd Ave, Portland, OR 97201, USA", "Zip": "97201", "Price_Level(Google)": 2.0, "Rating(Google)": 4.1}}
,{"type": "Feature", "geometry": {"type": "Point", "coordinates": [-122.678, 45.514]}, "properties": {"Name": "Mizu Sushi", "Address": "1338 SW 3rd Ave, Portland, OR 97201, USA", "Zip": "97201", "Price_Level(Google)": 2.0, "Rating(Google)": 4.2}}
,{"type": "Feature", "geometry": {"type": "Point", "coordinates": [-122.678, 45.512]}, "properties": {"Name": "Murata", "Address": "200 SW Market St, Portland, OR 97201, USA", "Zip": "97201", "Price_Level(Google)": 2.0, "Rating(Google)": 4.6}}
,{"type": "Feature", "geometry": {"type": "Point", "coordinates": [-122.674, 45.51]}, "properties": {"Name": "YoMi Sushi", "Address": "315 SW Montgomery St #150, Portland, OR 97201, USA", "Zip": "97201", "Price_Level(Google)": 0.0, "Rating(Google)": 3.9}}
,{"type": "Feature", "geometry": {"type": "Point", "coordinates": [-122.685, 45.509]}, "properties": {"Name": "Blue Fin", "Address": "1988 SW Broadway, Portland, OR 97201, USA", "Zip": "97201", "Price_Level(Google)": 2.0, "Rating(Google)": 3.4}}
,{"type": "Feature", "geometry": {"type": "Point", "coordinates": [-122.681, 45.511]}, "properties": {"Name": "Sumo Sushi", "Address": "1808 SW 5th Ave, Portland, OR 97201, USA", "Zip": "97201", "Price_Level(Google)": 0.0, "Rating(Google)": 4.7}}
,{"type": "Feature", "geometry": {"type": "Point", "coordinates": [-122.684, 45.506]}, "properties": {"Name": "Sushi Takahashi 2", "Address": "2415 SW 5th Ave, Portland, OR 97201, USA", "Zip": "97201", "Price_Level(Google)": 2.0, "Rating(Google)": 4.6}}
,{"type": "Feature", "geometry": {"type": "Point", "coordinates": [-122.687, 45.517]}, "properties": {"Name": "Shizuku", "Address": "1235 SW Jefferson St, Portland, OR 97201, USA", "Zip": "97201", "Price_Level(Google)": 2.0, "Rating(Google)": 4.7}}
,{"type": "Feature", "geometry": {"type": "Point", "coordinates": [-122.683, 45.522]}, "properties": {"Name": "Bamboo Sushi SW", "Address": "404 SW 12th Ave, Portland, OR 97205, USA", "Zip": "97205", "Price_Level(Google)": 3.0, "Rating(Google)": 4.5}}
,{"type": "Feature", "geometry": {"type": "Point", "coordinates": [-122.637, 45.521]}, "properties": {"Name": "Bamboo Sushi SE", "Address": "310 SE 28th Ave, Portland, OR 97214, USA", "Zip": "97214", "Price_Level(Google)": 2.0, "Rating(Google)": 4.6}}
,{"type": "Feature", "geometry": {"type": "Point", "coordinates": [-122.698, 45.529]}, "properties": {"Name": "Bamboo Sushi NW", "Address": "836 NW 23rd Ave, Portland, OR 97210, USA", "Zip": "97210", "Price_Level(Google)": 0.0, "Rating(Google)": 4.6}}
,{"type": "Feature", "geometry": {"type": "Point", "coordinates": [-122.682, 45.529]}, "properties": {"Name": "Sinju Sushi", "Address": "1022 NW Johnson St, Portland, OR 97209, USA", "Zip": "97209", "Price_Level(Google)": 2.0, "Rating(Google)": 4.1}}
,{"type": "Feature", "geometry": {"type": "Point", "coordinates": [-122.679, 45.52]}, "properties": {"Name": "Koji Osakaya Japanese Restaurant", "Address": "606 SW Broadway, Portland, OR 97205, USA", "Zip": "97205", "Price_Level(Google)": 1.0, "Rating(Google)": 4.1}}
,{"type": "Feature", "geometry": {"type": "Point", "coordinates": [-122.651, 45.559]}, "properties": {"Name": "Bamboo Sushi NE", "Address": "1409 NE Alberta St, Portland, OR 97211, USA", "Zip": "97211", "Price_Level(Google)": 0.0, "Rating(Google)": 4.5}}
,{"type": "Feature", "geometry": {"type": "Point", "coordinates": [-122.675, 45.518]}, "properties": {"Name": "Sensei Sushi Bar & Grill", "Address": "710 SW 2nd Ave, Portland, OR 97204, USA", "Zip": "97204", "Price_Level(Google)": 0.0, "Rating(Google)": 4.5}}
,{"type": "Feature", "geometry": {"type": "Point", "coordinates": [-122.681, 45.53]}, "properties": {"Name": "Yama Sushi & Sake Bar", "Address": "926 NW 10th Ave, Portland, OR 97209, USA", "Zip": "97209", "Price_Level(Google)": 2.0, "Rating(Google)": 4.6}}
,{"type": "Feature", "geometry": {"type": "Point", "coordinates": [-122.684, 45.522]}, "properties": {"Name": "Masu Sushi", "Address": "406 SW 13th Ave, Portland, OR 97205, USA", "Zip": "97205", "Price_Level(Google)": 2.0, "Rating(Google)": 4.3}}
,{"type": "Feature", "geometry": {"type": "Point", "coordinates": [-122.685, 45.527]}, "properties": {"Name": "Mio Sushi", "Address": "1317 NW Hoyt St, Portland, OR 97209, USA", "Zip": "97209", "Price_Level(Google)": 1.0, "Rating(Google)": 4.0}}
,{"type": "Feature", "geometry": {"type": "Point", "coordinates": [-122.656, 45.513]}, "properties": {"Name": "Wasabi Sushi PDX", "Address": "980 SE Madison St, Portland, OR 97214, USA", "Zip": "97214", "Price_Level(Google)": 0.0, "Rating(Google)": 4.4}}
,{"type": "Feature", "geometry": {"type": "Point", "coordinates": [-122.698, 45.529]}, "properties": {"Name": "Mio Sushi", "Address": "2271 NW Johnson St, Portland, OR 97210, USA", "Zip": "97210", "Price_Level(Google)": 2.0, "Rating(Google)": 4.1}}
,{"type": "Feature", "geometry": {"type": "Point", "coordinates": [-122.665, 45.513]}, "properties": {"Name": "Sushi Mazi", "Address": "80 SE Madison St, Portland, OR 97214, USA", "Zip": "97214", "Price_Level(Google)": 0.0, "Rating(Google)": 4.7}}
,{"type": "Feature", "geometry": {"type": "Point", "coordinates": [-122.683, 45.518]}, "properties": {"Name": "Shigezo", "Address": "910 SW Salmon St, Portland, OR 97205, USA", "Zip": "97205", "Price_Level(Google)": 2.0, "Rating(Google)": 4.2}}
,{"type": "Feature", "geometry": {"type": "Point", "coordinates": [-122.678, 45.52]}, "properties": {"Name": "Sushi Sakura", "Address": "506 SW 6th Ave, Portland, OR 97204, USA", "Zip": "97204", "Price_Level(Google)": 2.0, "Rating(Google)": 3.9}}
,{"type": "Feature", "geometry": {"type": "Point", "coordinates": [-122.647, 45.464]}, "properties": {"Name": "Mio Sushi", "Address": "1710 SE Tacoma St, Portland, OR 97202, USA", "Zip": "97202", "Price_Level(Google)": 2.0, "Rating(Google)": 4.1}}
,{"type": "Feature", "geometry": {"type": "Point", "coordinates": [-122.621, 45.512]}, "properties": {"Name": "Mio Sushi", "Address": "3962 SE Hawthorne Blvd # E, Portland, OR 97214, USA", "Zip": "97214", "Price_Level(Google)": 2.0, "Rating(Google)": 3.8}}
,{"type": "Feature", "geometry": {"type": "Point", "coordinates": [-122.648, 45.474]}, "properties": {"Name": "Saburos Sushi House Restaurant", "Address": "1667 SE Bybee Blvd, Portland, OR 97202, USA", "Zip": "97202", "Price_Level(Google)": 1.0, "Rating(Google)": 4.1}}
,{"type": "Feature", "geometry": {"type": "Point", "coordinates": [-122.62, 45.534]}, "properties": {"Name": "Mio Sushi", "Address": "4204 NE Halsey St, Portland, OR 97213, USA", "Zip": "97213", "Price_Level(Google)": 1.0, "Rating(Google)": 4.0}}
,{"type": "Feature", "geometry": {"type": "Point", "coordinates": [-122.724, 45.452]}, "properties": {"Name": "SHO Japanese Restaurant", "Address": "10100 SW Barbur Blvd, Portland, OR 97219, USA", "Zip": "97219", "Price_Level(Google)": 2.0, "Rating(Google)": 4.4}}
,{"type": "Feature", "geometry": {"type": "Point", "coordinates": [-122.672, 45.473]}, "properties": {"Name": "Koji Osakaya", "Address": "7007 SW Macadam Ave, Portland, OR 97219, USA", "Zip": "97219", "Price_Level(Google)": 2.0, "Rating(Google)": 3.9}}
,{"type": "Feature", "geometry": {"type": "Point", "coordinates": [-122.681, 45.521]}, "properties": {"Name": "Rolling Gourmet Fusion", "Address": "930 SW Washington St & Southwest 9th Avenue, Portland, OR 97201, USA", "Zip": "97201", "Price_Level(Google)": 0.0, "Rating(Google)": 4.9}}
,{"type": "Feature", "geometry": {"type": "Point", "coordinates": [-122.652, 45.535]}, "properties": {"Name": "Yuki Japanese Restaurant", "Address": "1337 NE Broadway St, Portland, OR 97232, USA", "Zip": "97232", "Price_Level(Google)": 2.0, "Rating(Google)": 4.2}}
,{"type": "Feature", "geometry": {"type": "Point", "coordinates": [-122.645, 45.503]}, "properties": {"Name": "Yama Sushi & Izakaya", "Address": "\u30a2\u30e1\u30ea\u30ab\u5408\u8846\u56fd, 2038 SE Clinton St, Portland, OR 97202, United States", "Zip": "97202", "Price_Level(Google)": 0.0, "Rating(Google)": 4.7}}
,{"type": "Feature", "geometry": {"type": "Point", "coordinates": [-122.644, 45.505]}, "properties": {"Name": "Sushi Mazi", "Address": "2126 SE Division St, Portland, OR 97202, USA", "Zip": "97202", "Price_Level(Google)": 2.0, "Rating(Google)": 4.5}}
,{"type": "Feature", "geometry": {"type": "Point", "coordinates": [-122.604, 45.497]}, "properties": {"Name": "Ichidai Japanese Restaurant", "Address": "5714 SE Powell Blvd, Portland, OR 97206, USA", "Zip": "97206", "Price_Level(Google)": 2.0, "Rating(Google)": 4.5}}
,{"type": "Feature", "geometry": {"type": "Point", "coordinates": [-122.673, 45.522]}, "properties": {"Name": "SuBe", "Address": "40 SW 3rd Ave, Portland, OR 97204, USA", "Zip": "97204", "Price_Level(Google)": 0.0, "Rating(Google)": 4.4}}
,{"type": "Feature", "geometry": {"type": "Point", "coordinates": [-122.65, 45.534]}, "properties": {"Name": "Koji Osakaya", "Address": "1502 NE Weidler St, Portland, OR 97232, USA", "Zip": "97232", "Price_Level(Google)": 1.0, "Rating(Google)": 4.2}}
,{"type": "Feature", "geometry": {"type": "Point", "coordinates": [-122.681, 45.524]}, "properties": {"Name": "Marinepolis Sushi Land", "Address": "138 NW 10th Ave, Portland, OR 97209, USA", "Zip": "97209", "Price_Level(Google)": 1.0, "Rating(Google)": 3.6}}
,{"type": "Feature", "geometry": {"type": "Point", "coordinates": [-122.677, 45.524]}, "properties": {"Name": "Sushi Ichiban", "Address": "24 NW Broadway, Portland, OR 97209, USA", "Zip": "97209", "Price_Level(Google)": 0.0, "Rating(Google)": 4.4}}
,{"type": "Feature", "geometry": {"type": "Point", "coordinates": [-122.675, 45.551]}, "properties": {"Name": "UCHU Sushi", "Address": "3940 N Mississippi Ave, Portland, OR 97227, USA", "Zip": "97227", "Price_Level(Google)": 2.0, "Rating(Google)": 4.2}}
,{"type": "Feature", "geometry": {"type": "Point", "coordinates": [-122.695, 45.527]}, "properties": {"Name": "San Sai Japanese Grill", "Address": "539 NW 21st Ave, Portland, OR 97209, USA", "Zip": "97209", "Price_Level(Google)": 2.0, "Rating(Google)": 4.2}}
,{"type": "Feature", "geometry": {"type": "Point", "coordinates": [-122.636, 45.493]}, "properties": {"Name": "Yoko's", "Address": "2878 SE Gladstone St, Portland, OR 97202, USA", "Zip": "97202", "Price_Level(Google)": 2.0, "Rating(Google)": 4.3}}
,{"type": "Feature", "geometry": {"type": "Point", "coordinates": [-122.624, 45.505]}, "properties": {"Name": "Yataimura Maru", "Address": "3810 SE Division St, Portland, OR 97202, USA", "Zip": "97202", "Price_Level(Google)": 0.0, "Rating(Google)": 4.4}}
,{"type": "Feature", "geometry": {"type": "Point", "coordinates": [-122.654, 45.464]}, "properties": {"Name": "SushiLove", "Address": "1122 SE Tacoma St, Portland, OR 97202, USA", "Zip": "97202", "Price_Level(Google)": 0.0, "Rating(Google)": 4.4}}
,{"type": "Feature", "geometry": {"type": "Point", "coordinates": [-122.742, 45.588]}, "properties": {"Name": "Kazumi Sushi", "Address": "7316 N Lombard St, Portland, OR 97203, USA", "Zip": "97203", "Price_Level(Google)": 0.0, "Rating(Google)": 4.8}}
,{"type": "Feature", "geometry": {"type": "Point", "coordinates": [-122.695, 45.563]}, "properties": {"Name": "Mio Sushi", "Address": "2735 N Killingsworth St, Portland, OR 97217, USA", "Zip": "97217", "Price_Level(Google)": 1.0, "Rating(Google)": 4.0}}
,{"type": "Feature", "geometry": {"type": "Point", "coordinates": [-122.72, 45.581]}, "properties": {"Name": "Origami Catering", "Address": "5003 N Lombard St, Portland, OR 97203, USA", "Zip": "97203", "Price_Level(Google)": 0.0, "Rating(Google)": 3.2}}
,{"type": "Feature", "geometry": {"type": "Point", "coordinates": [-122.687, 45.57]}, "properties": {"Name": "Sushi One", "Address": "4964, 6516 N Denver Ave, Portland, OR 97217, United States", "Zip": "97217", "Price_Level(Google)": 0.0, "Rating(Google)": 4.6}}
,{"type": "Feature", "geometry": {"type": "Point", "coordinates": [-122.681, 45.612]}, "properties": {"Name": "Stanford's Restaurant & Bar", "Address": "12200 N Parker Ave, Portland, OR 97217, USA", "Zip": "97217", "Price_Level(Google)": 2.0, "Rating(Google)": 4.0}}
,{"type": "Feature", "geometry": {"type": "Point", "coordinates": [-122.759, 45.595]}, "properties": {"Name": "Du's Teriyaki", "Address": "9501 N Lombard St, Portland, OR 97203, USA", "Zip": "97203", "Price_Level(Google)": 0.0, "Rating(Google)": 4.3}}
,{"type": "Feature", "geometry": {"type": "Point", "coordinates": [-122.676, 45.554]}, "properties": {"Name": "Teppanyaki Hut", "Address": "4233 N Mississippi Ave, Portland, OR 97217, USA", "Zip": "97217", "Price_Level(Google)": 0.0, "Rating(Google)": 4.8}}
,{"type": "Feature", "geometry": {"type": "Point", "coordinates": [-122.869, 45.529]}, "properties": {"Name": "Mio Sushi", "Address": "1255 NW 185th Ave, Aloha, OR 97006, USA", "Zip": "97006", "Price_Level(Google)": 1.0, "Rating(Google)": 4.5}}
,{"type": "Feature", "geometry": {"type": "Point", "coordinates": [-122.807, 45.491]}, "properties": {"Name": "Mio Sushi", "Address": "12600 SW Cres St, Beaverton, OR 97005, USA", "Zip": "97005", "Price_Level(Google)": 1.0, "Rating(Google)": 4.1}}
,{"type": "Feature", "geometry": {"type": "Point", "coordinates": [-122.647, 45.559]}, "properties": {"Name": "Zilla Sake", "Address": "1806 NE Alberta St, Portland, OR 97211, USA", "Zip": "97211", "Price_Level(Google)": 2.0, "Rating(Google)": 4.4}}
,{"type": "Feature", "geometry": {"type": "Point", "coordinates": [-122.843, 45.518]}, "properties": {"Name": "Crazy Sushi Shoten", "Address": "16165 SW Regatta Ln #500, Beaverton, OR 97006, USA", "Zip": "97006", "Price_Level(Google)": 0.0, "Rating(Google)": 4.4}}
,{"type": "Feature", "geometry": {"type": "Point", "coordinates": [-122.651, 45.534]}, "properties": {"Name": "Marinepolis Sushi Land", "Address": "1409 NE Weidler St, Portland, OR 97232, USA", "Zip": "97232", "Price_Level(Google)": 1.0, "Rating(Google)": 3.5}}
,{"type": "Feature", "geometry": {"type": "Point", "coordinates": [-122.654, 45.533]}, "properties": {"Name": "Sarku Japan", "Address": "2201 Lloyd Center, Portland, OR 97232, USA", "Zip": "97232", "Price_Level(Google)": 1.0, "Rating(Google)": 2.8}}
,{"type": "Feature", "geometry": {"type": "Point", "coordinates": [-122.753, 45.397]}, "properties": {"Name": "Sinju Sushi", "Address": "7339 SW Bridgeport Rd, Tigard, OR 97224, USA", "Zip": "97224", "Price_Level(Google)": 2.0, "Rating(Google)": 4.0}}
,{"type": "Feature", "geometry": {"type": "Point", "coordinates": [-122.799, 45.49]}, "properties": {"Name": "Marinepolis Sushi Land", "Address": "4021 SW 117th Ave, Beaverton, OR 97005, USA", "Zip": "97005", "Price_Level(Google)": 1.0, "Rating(Google)": 3.1}}
,{"type": "Feature", "geometry": {"type": "Point", "coordinates": [-122.797, 45.487]}, "properties": {"Name": "Sushi Track", "Address": "11635 SW Beaverton Hillsdale, Beaverton, OR 97005, USA", "Zip": "97005", "Price_Level(Google)": 2.0, "Rating(Google)": 3.7}}
,{"type": "Feature", "geometry": {"type": "Point", "coordinates": [-122.827, 45.495]}, "properties": {"Name": "Sushi Hana", "Address": "14605 SW Millikan Way, Beaverton, OR 97006, USA", "Zip": "97006", "Price_Level(Google)": 0.0, "Rating(Google)": 4.2}}
,{"type": "Feature", "geometry": {"type": "Point", "coordinates": [-122.7, 45.535]}, "properties": {"Name": "Wild Wasabe Japanese Bistro", "Address": "2330 NW Thurman St, Portland, OR 97210, USA", "Zip": "97210", "Price_Level(Google)": 2.0, "Rating(Google)": 4.1}}
,{"type": "Feature", "geometry": {"type": "Point", "coordinates": [-122.778, 45.454]}, "properties": {"Name": "Sushi Hana", "Address": "9009 SW Hall Blvd # 142, Tigard, OR 97223, USA", "Zip": "97223", "Price_Level(Google)": 1.0, "Rating(Google)": 4.1}}
,{"type": "Feature", "geometry": {"type": "Point", "coordinates": [-122.786, 45.453]}, "properties": {"Name": "Benihana", "Address": "9205 SW Cascade Ave, Beaverton, OR 97008, USA", "Zip": "97008", "Price_Level(Google)": 2.0, "Rating(Google)": 4.2}}
,{"type": "Feature", "geometry": {"type": "Point", "coordinates": [-122.635, 45.562]}, "properties": {"Name": "Yakuza Lounge", "Address": "5411 NE 30th Ave, Portland, OR 97211, USA", "Zip": "97211", "Price_Level(Google)": 2.0, "Rating(Google)": 4.1}}
,{"type": "Feature", "geometry": {"type": "Point", "coordinates": [-122.758, 45.437]}, "properties": {"Name": "Sushi Hana", "Address": "11705 SW Pacific Hwy #M, Tigard, OR 97223, USA", "Zip": "97223", "Price_Level(Google)": 1.0, "Rating(Google)": 4.2}}
,{"type": "Feature", "geometry": {"type": "Point", "coordinates": [-122.781, 45.45]}, "properties": {"Name": "Sarku Japan", "Address": "9665 SW Washington Square Rd, Portland, OR 97223, USA", "Zip": "97223", "Price_Level(Google)": 1.0, "Rating(Google)": 2.3}}
,{"type": "Feature", "geometry": {"type": "Point", "coordinates": [-122.642, 45.559]}, "properties": {"Name": "Hana Japanese Bistro", "Address": "2236 NE Alberta St, Portland, OR 97211, USA", "Zip": "97211", "Price_Level(Google)": 2.0, "Rating(Google)": 4.3}}
,{"type": "Feature", "geometry": {"type": "Point", "coordinates": [-122.676, 45.523]}, "properties": {"Name": "Portland City Grill", "Address": "111 5th Ave, Portland, OR 97204, USA", "Zip": "97204", "Price_Level(Google)": 2.0, "Rating(Google)": 4.3}}
,{"type": "Feature", "geometry": {"type": "Point", "coordinates": [-122.678, 45.519]}, "properties": {"Name": "Departure Restaurant + Lounge", "Address": "525 SW Morrison St, Portland, OR 97204, USA", "Zip": "97204", "Price_Level(Google)": 2.0, "Rating(Google)": 4.2}}
,{"type": "Feature", "geometry": {"type": "Point", "coordinates": [-122.678, 45.522]}, "properties": {"Name": "Saucebox", "Address": "214 SW Broadway, Portland, OR 97205, USA", "Zip": "97205", "Price_Level(Google)": 2.0, "Rating(Google)": 3.9}}
,{"type": "Feature", "geometry": {"type": "Point", "coordinates": [-122.682, 45.522]}, "properties": {"Name": "QuickFish Poke Bar", "Address": "1122 SW Stark St, Portland, OR 97205, USA", "Zip": "97205", "Price_Level(Google)": 1.0, "Rating(Google)": 4.2}}
,{"type": "Feature", "geometry": {"type": "Point", "coordinates": [-122.681, 45.521]}, "properties": {"Name": "Samurai Bento", "Address": "950 SW Alder St, Portland, OR 97205, USA", "Zip": "97205", "Price_Level(Google)": 0.0, "Rating(Google)": 0.0}}
,{"type": "Feature", "geometry": {"type": "Point", "coordinates": [-122.683, 45.521]}, "properties": {"Name": "Chizu", "Address": "1126 SW Alder St, Portland, OR 97205, USA", "Zip": "97205", "Price_Level(Google)": 2.0, "Rating(Google)": 4.9}}
,{"type": "Feature", "geometry": {"type": "Point", "coordinates": [-122.682, 45.522]}, "properties": {"Name": "Boxer Ramen", "Address": "1025 SW Stark St, Portland, OR 97205, USA", "Zip": "97205", "Price_Level(Google)": 2.0, "Rating(Google)": 4.3}}
,{"type": "Feature", "geometry": {"type": "Point", "coordinates": [-122.684, 45.522]}, "properties": {"Name": "Grassa", "Address": "1205 SW Washington St, Portland, OR 97205, USA", "Zip": "97205", "Price_Level(Google)": 1.0, "Rating(Google)": 4.4}}
,{"type": "Feature", "geometry": {"type": "Point", "coordinates": [-122.613, 45.479]}, "properties": {"Name": "Shoko Sushi", "Address": "4807 SE Woodstock Blvd # A, Portland, OR 97206, USA", "Zip": "97206", "Price_Level(Google)": 2.0, "Rating(Google)": 4.3}}
,{"type": "Feature", "geometry": {"type": "Point", "coordinates": [-122.613, 45.505]}, "properties": {"Name": "Tokio Table - Japanese Steakhouse", "Address": "4768 SE Division St, Portland, OR 97206, USA", "Zip": "97206", "Price_Level(Google)": 0.0, "Rating(Google)": 4.6}}
,{"type": "Feature", "geometry": {"type": "Point", "coordinates": [-122.578, 45.493]}, "properties": {"Name": "Fujiyama Sushi Bar & Grill", "Address": "4124 SE 82nd Ave #550, Portland, OR 97266, USA", "Zip": "97266", "Price_Level(Google)": 0.0, "Rating(Google)": 4.2}}
,{"type": "Feature", "geometry": {"type": "Point", "coordinates": [-122.58, 45.519]}, "properties": {"Name": "Miyamoto", "Address": "422 SE 81st Ave, Portland, OR 97215, USA", "Zip": "97215", "Price_Level(Google)": 0.0, "Rating(Google)": 4.7}}
,{"type": "Feature", "geometry": {"type": "Point", "coordinates": [-122.688, 45.535]}, "properties": {"Name": "JST Seafood Market", "Address": "1703 NW 16th Ave, Portland, OR 97209, USA", "Zip": "97209", "Price_Level(Google)": 0.0, "Rating(Google)": 3.8}}
,{"type": "Feature", "geometry": {"type": "Point", "coordinates": [-122.672, 45.524]}, "properties": {"Name": "Uogashi Restaurant and Cooking School", "Address": "107 NW Couch St, Portland, OR 97209, USA", "Zip": "97209", "Price_Level(Google)": 0.0, "Rating(Google)": 4.0}}
,{"type": "Feature", "geometry": {"type": "Point", "coordinates": [-122.648, 45.563]}, "properties": {"Name": "Daruma Sushi + Sake", "Address": "1640 NE Killingsworth St, Portland, OR 97211, USA", "Zip": "97211", "Price_Level(Google)": 2.0, "Rating(Google)": 4.2}}
,{"type": "Feature", "geometry": {"type": "Point", "coordinates": [-122.476, 45.528]}, "properties": {"Name": "Meeka Sushi Japanese Restaurant", "Address": "730 NE 181st Ave, Portland, OR 97230, USA", "Zip": "97230", "Price_Level(Google)": 1.0, "Rating(Google)": 4.4}}
,{"type": "Feature", "geometry": {"type": "Point", "coordinates": [-122.636, 45.516]}, "properties": {"Name": "Nodoguro", "Address": "2832 SE Belmont St, Portland, OR 97214, USA", "Zip": "97214", "Price_Level(Google)": 4.0, "Rating(Google)": 5.0}}
,{"type": "Feature", "geometry": {"type": "Point", "coordinates": [-122.557, 45.489]}, "properties": {"Name": "Takahashi", "Address": "10324 SE Holgate Blvd, Portland, OR 97266, USA", "Zip": "97266", "Price_Level(Google)": 2.0, "Rating(Google)": 4.6}}
,{"type": "Feature", "geometry": {"type": "Point", "coordinates": [-122.66, 45.523]}, "properties": {"Name": "Mirakutei", "Address": "536 E Burnside St, Portland, OR 97214, USA", "Zip": "97214", "Price_Level(Google)": 2.0, "Rating(Google)": 4.4}}
,{"type": "Feature", "geometry": {"type": "Point", "coordinates": [-122.65, 45.548]}, "properties": {"Name": "Mojo Sushi", "Address": "1507 NE Fremont St, Portland, OR 97212, USA", "Zip": "97212", "Price_Level(Google)": 0.0, "Rating(Google)": 4.5}}
,{"type": "Feature", "geometry": {"type": "Point", "coordinates": [-122.659, 45.563]}, "properties": {"Name": "Rollin' Fresh Sushiritos And Poke'- Killingsworth", "Address": "625 NE Killingsworth St, Portland, OR 97211, USA", "Zip": "97211", "Price_Level(Google)": 0.0, "Rating(Google)": 4.7}}
,{"type": "Feature", "geometry": {"type": "Point", "coordinates": [-122.577, 45.445]}, "properties": {"Name": "Sushi & Maki", "Address": "10822 SE 82nd Ave, Portland, OR 97086, USA", "Zip": "97086", "Price_Level(Google)": 2.0, "Rating(Google)": 4.5}}
,{"type": "Feature", "geometry": {"type": "Point", "coordinates": [-122.664, 45.541]}, "properties": {"Name": "Izakaya Kichinto", "Address": "102 NE Russell St, Portland, OR 97212, USA", "Zip": "97212", "Price_Level(Google)": 2.0, "Rating(Google)": 4.5}}
,{"type": "Feature", "geometry": {"type": "Point", "coordinates": [-122.659, 45.516]}, "properties": {"Name": "Afuri", "Address": "923 SE 7th Ave, Portland, OR 97214, USA", "Zip": "97214", "Price_Level(Google)": 2.0, "Rating(Google)": 4.4}}
,{"type": "Feature", "geometry": {"type": "Point", "coordinates": [-122.558, 45.573]}, "properties": {"Name": "Hot Pot 'N Sushi", "Address": "10127 NE Cascades Pkwy, Portland, OR 97220, USA", "Zip": "97220", "Price_Level(Google)": 2.0, "Rating(Google)": 3.2}}
,{"type": "Feature", "geometry": {"type": "Point", "coordinates": [-122.816, 45.529]}, "properties": {"Name": "Ichiban", "Address": "13599 NW Cornell Rd, Portland, OR 97229, USA", "Zip": "97229", "Price_Level(Google)": 2.0, "Rating(Google)": 4.4}}
,{"type": "Feature", "geometry": {"type": "Point", "coordinates": [-122.622, 45.535]}, "properties": {"Name": "Sushi Chiyo", "Address": "4029 NE Sandy Blvd, Portland, OR 97212, USA", "Zip": "97212", "Price_Level(Google)": 0.0, "Rating(Google)": 4.3}}
,{"type": "Feature", "geometry": {"type": "Point", "coordinates": [-122.651, 45.535]}, "properties": {"Name": "Sushi Ohana", "Address": "1422 Northeast Broadway, Portland, OR 97232, USA", "Zip": "97232", "Price_Level(Google)": 0.0, "Rating(Google)": 4.3}}
,{"type": "Feature", "geometry": {"type": "Point", "coordinates": [-122.55, 45.504]}, "properties": {"Name": "Kyoto Sushi", "Address": "11003 SE Division St, Portland, OR 97266, USA", "Zip": "97266", "Price_Level(Google)": 0.0, "Rating(Google)": 4.4}}
,{"type": "Feature", "geometry": {"type": "Point", "coordinates": [-122.621, 45.535]}, "properties": {"Name": "Saima Thai & Sushi", "Address": "4118 NE Sandy Blvd, Portland, OR 97212, USA", "Zip": "97212", "Price_Level(Google)": 0.0, "Rating(Google)": 4.9}}
,{"type": "Feature", "geometry": {"type": "Point", "coordinates": [-122.65, 45.548]}, "properties": {"Name": "Daddy Mojo's Cafe", "Address": "1501 NE Fremont St, Portland, OR 97212, USA", "Zip": "97212", "Price_Level(Google)": 0.0, "Rating(Google)": 4.0}}
,{"type": "Feature", "geometry": {"type": "Point", "coordinates": [-122.617, 45.537]}, "properties": {"Name": "Teriyaki Town", "Address": "4434 NE Sandy Blvd, Portland, OR 97213, USA", "Zip": "97213", "Price_Level(Google)": 2.0, "Rating(Google)": 4.3}}
,{"type": "Feature", "geometry": {"type": "Point", "coordinates": [-122.621, 45.535]}, "properties": {"Name": "Pono Farm Soul Kitchen", "Address": "4118 NE Sandy Blvd, Portland, OR 97212, USA", "Zip": "97212", "Price_Level(Google)": 0.0, "Rating(Google)": 4.3}}
,{"type": "Feature", "geometry": {"type": "Point", "coordinates": [-122.61, 45.541]}, "properties": {"Name": "Let's Roll PDX- NE Sandy", "Address": "5235 NE Sandy Blvd, Portland, OR 97213, USA", "Zip": "97213", "Price_Level(Google)": 0.0, "Rating(Google)": 4.7}}
,{"type": "Feature", "geometry": {"type": "Point", "coordinates": [-122.631, 45.512]}, "properties": {"Name": "Sak\u00e9 Izakaya Sushi & Thai", "Address": "5045, 3272 SE Hawthorne Blvd, Portland, OR 97214, United States", "Zip": "97214", "Price_Level(Google)": 0.0, "Rating(Google)": 3.7}}
,{"type": "Feature", "geometry": {"type": "Point", "coordinates": [-122.626, 45.512]}, "properties": {"Name": "Toney Bento", "Address": "1420 SE 37th Ave, Portland, OR 97214, USA", "Zip": "97214", "Price_Level(Google)": 1.0, "Rating(Google)": 3.8}}
,{"type": "Feature", "geometry": {"type": "Point", "coordinates": [-122.645, 45.512]}, "properties": {"Name": "Nimblefish", "Address": "1524 SE 20th Ave, Portland, OR 97214, USA", "Zip": "97214", "Price_Level(Google)": 0.0, "Rating(Google)": 3.9}}
,{"type": "Feature", "geometry": {"type": "Point", "coordinates": [-122.665, 45.512]}, "properties": {"Name": "Noraneko", "Address": "1430 SE Water Ave, Portland, OR 97214, USA", "Zip": "97214", "Price_Level(Google)": 0.0, "Rating(Google)": 4.2}}
,{"type": "Feature", "geometry": {"type": "Point", "coordinates": [-122.657, 45.521]}, "properties": {"Name": "Biwa", "Address": "215 SE 9th Ave, Portland, OR 97214, USA", "Zip": "97214", "Price_Level(Google)": 2.0, "Rating(Google)": 4.1}}
,{"type": "Feature", "geometry": {"type": "Point", "coordinates": [-122.658, 45.514]}, "properties": {"Name": "Kokiyo Teriyaki", "Address": "1234 SE 7th Ave, Portland, OR 97214, USA", "Zip": "97214", "Price_Level(Google)": 2.0, "Rating(Google)": 4.4}}
,{"type": "Feature", "geometry": {"type": "Point", "coordinates": [-122.632, 45.512]}, "properties": {"Name": "Rollin Fresh Sushiritos And Poke\u2019 - Hawthorne", "Address": "3207 SE Hawthorne St, Portland, OR 97214, USA", "Zip": "97214", "Price_Level(Google)": 0.0, "Rating(Google)": 5.0}}
,{"type": "Feature", "geometry": {"type": "Point", "coordinates": [-122.634, 45.512]}, "properties": {"Name": "SeaSweets Poke", "Address": "1505 SE 31st Ave, Portland, OR 97214, USA", "Zip": "97214", "Price_Level(Google)": 0.0, "Rating(Google)": 4.7}}
,{"type": "Feature", "geometry": {"type": "Point", "coordinates": [-122.634, 45.512]}, "properties": {"Name": "CUBO (El Cubo de Cuba)", "Address": "3106 SE Hawthorne Blvd, Portland, OR 97214, USA", "Zip": "97214", "Price_Level(Google)": 1.0, "Rating(Google)": 4.4}}
,{"type": "Feature", "geometry": {"type": "Point", "coordinates": [-122.581, 45.519]}, "properties": {"Name": "Tanuki", "Address": "8029 SE Stark St, Portland, OR 97215, USA", "Zip": "97215", "Price_Level(Google)": 0.0, "Rating(Google)": 4.9}}
,{"type": "Feature", "geometry": {"type": "Point", "coordinates": [-122.557, 45.518]}, "properties": {"Name": "Fujiyama Sushi Bar", "Address": "10308 SE Washington St, Portland, OR 97216, USA", "Zip": "97216", "Price_Level(Google)": 0.0, "Rating(Google)": 4.3}}
,{"type": "Feature", "geometry": {"type": "Point", "coordinates": [-122.563, 45.518]}, "properties": {"Name": "Umenoki Kaiten", "Address": "9738 SE Washington St M, Portland, OR 97216, USA", "Zip": "97216", "Price_Level(Google)": 2.0, "Rating(Google)": 4.0}}
,{"type": "Feature", "geometry": {"type": "Point", "coordinates": [-122.578, 45.508]}, "properties": {"Name": "98 Degrees Sushi", "Address": "8230 SE Harrison St #310, Portland, OR 97216, USA", "Zip": "97216", "Price_Level(Google)": 0.0, "Rating(Google)": 4.3}}
,{"type": "Feature", "geometry": {"type": "Point", "coordinates": [-122.705, 45.577]}, "properties": {"Name": "Bong Teriyaki", "Address": "3715 N Lombard St, Portland, OR 97217, USA", "Zip": "97217", "Price_Level(Google)": 0.0, "Rating(Google)": 4.3}}
,{"type": "Feature", "geometry": {"type": "Point", "coordinates": [-122.594, 45.591]}, "properties": {"Name": "Hissho Sushi", "Address": "Portland, OR 97218, USA", "Zip": "97218", "Price_Level(Google)": 0.0, "Rating(Google)": 3.3}}
,{"type": "Feature", "geometry": {"type": "Point", "coordinates": [-122.594, 45.589]}, "properties": {"Name": "Stanford's Restaurant & Bar", "Address": "7000 NE Airport Way, Portland, OR 97218, United States", "Zip": "97218", "Price_Level(Google)": 2.0, "Rating(Google)": 4.3}}
,{"type": "Feature", "geometry": {"type": "Point", "coordinates": [-122.576, 45.433]}, "properties": {"Name": "Marinepolis Sushi Land: Clackamas", "Address": "8424 SE Sunnyside Rd, Clackamas, OR 97015, USA", "Zip": "97015", "Price_Level(Google)": 1.0, "Rating(Google)": 2.7}}
,{"type": "Feature", "geometry": {"type": "Point", "coordinates": [-122.576, 45.435]}, "properties": {"Name": "Sinju Sushi - Clackamas", "Address": "12000 SE 82nd Ave #3075, Happy Valley, OR 97086, USA", "Zip": "97086", "Price_Level(Google)": 2.0, "Rating(Google)": 3.6}}
,{"type": "Feature", "geometry": {"type": "Point", "coordinates": [-122.577, 45.483]}, "properties": {"Name": "Sushi Sushi Japanese Restaurant", "Address": "5432 SE 82nd Ave, Portland, OR 97266, USA", "Zip": "97266", "Price_Level(Google)": 2.0, "Rating(Google)": 4.2}}
,{"type": "Feature", "geometry": {"type": "Point", "coordinates": [-122.771, 45.43]}, "properties": {"Name": "MAKI Japanese Restaurant", "Address": "12430 SW Main St, Portland, OR 97223, USA", "Zip": "97223", "Price_Level(Google)": 2.0, "Rating(Google)": 4.3}}
,{"type": "Feature", "geometry": {"type": "Point", "coordinates": [-122.691, 45.47]}, "properties": {"Name": "AFC Sushi", "Address": "7555 SW Barbur Blvd, Portland, OR 97219, USA", "Zip": "97219", "Price_Level(Google)": 0.0, "Rating(Google)": 5.0}}
,{"type": "Feature", "geometry": {"type": "Point", "coordinates": [-122.673, 45.479]}, "properties": {"Name": "Thai PK Sushi BAR", "Address": "6141 SW Macadam Ave, Unit 106 Southwest Macadam Avenue, Portland, OR 97239, United States", "Zip": "97239", "Price_Level(Google)": 0.0, "Rating(Google)": 4.6}}
,{"type": "Feature", "geometry": {"type": "Point", "coordinates": [-122.693, 45.479]}, "properties": {"Name": "idea sushi", "Address": "6238 SW Capitol Hwy, Portland, OR 97239, USA", "Zip": "97239", "Price_Level(Google)": 0.0, "Rating(Google)": 5.0}}
,{"type": "Feature", "geometry": {"type": "Point", "coordinates": [-122.634, 45.423]}, "properties": {"Name": "Sushi Kata Japanese Restaurant", "Address": "13809 SE McLoughlin Blvd, Portland, OR 97222, USA", "Zip": "97222", "Price_Level(Google)": 2.0, "Rating(Google)": 4.6}}
,{"type": "Feature", "geometry": {"type": "Point", "coordinates": [-122.75, 45.394]}, "properties": {"Name": "Marinepolis Sushi Land", "Address": "7194 SW Hazel Fern Rd, Portland, OR 97224, USA", "Zip": "97224", "Price_Level(Google)": 0.0, "Rating(Google)": 3.9}}
,{"type": "Feature", "geometry": {"type": "Point", "coordinates": [-122.744, 45.488]}, "properties": {"Name": "Tokyo Grill", "Address": "6551 SW Beaverton Hillsdale Hwy, Portland, OR 97225, USA", "Zip": "97225", "Price_Level(Google)": 0.0, "Rating(Google)": 4.5}}
,{"type": "Feature", "geometry": {"type": "Point", "coordinates": [-122.793, 45.461]}, "properties": {"Name": "Banya Japanese Restaurant", "Address": "8166 SW Hall Blvd, Beaverton, OR 97008, USA", "Zip": "97008", "Price_Level(Google)": 2.0, "Rating(Google)": 4.5}}
,{"type": "Feature", "geometry": {"type": "Point", "coordinates": [-122.772, 45.486]}, "properties": {"Name": "Sambi Japanese Restaurant", "Address": "9230 SW Beaverton Hillsdale Hwy, Beaverton, OR 97005, USA", "Zip": "97005", "Price_Level(Google)": 2.0, "Rating(Google)": 4.6}}
,{"type": "Feature", "geometry": {"type": "Point", "coordinates": [-122.829, 45.437]}, "properties": {"Name": "Sushi Town", "Address": "14800 SW Murray Scholls #101, Beaverton, OR 97007, USA", "Zip": "97007", "Price_Level(Google)": 0.0, "Rating(Google)": 3.8}}
,{"type": "Feature", "geometry": {"type": "Point", "coordinates": [-122.782, 45.507]}, "properties": {"Name": "NW Teriyaki House", "Address": "10204 SW Park Way, Portland, OR 97225, USA", "Zip": "97225", "Price_Level(Google)": 1.0, "Rating(Google)": 4.9}}
,{"type": "Feature", "geometry": {"type": "Point", "coordinates": [-122.797, 45.49]}, "properties": {"Name": "Yuzu", "Address": "4130 SW 117th Ave, Beaverton, OR 97005, USA", "Zip": "97005", "Price_Level(Google)": 2.0, "Rating(Google)": 4.6}}
,{"type": "Feature", "geometry": {"type": "Point", "coordinates": [-122.785, 45.485]}, "properties": {"Name": "Ramen Ryoma", "Address": "10500 SW Beaverton Hillsdale Hwy, Beaverton, OR 97005, USA", "Zip": "97005", "Price_Level(Google)": 0.0, "Rating(Google)": 4.6}}
,{"type": "Feature", "geometry": {"type": "Point", "coordinates": [-122.809, 45.495]}, "properties": {"Name": "Kigaru Sushi", "Address": "3486 SW Cedar Hills Blvd, Beaverton, OR 97005, USA", "Zip": "97005", "Price_Level(Google)": 0.0, "Rating(Google)": 4.7}}
,{"type": "Feature", "geometry": {"type": "Point", "coordinates": [-122.824, 45.475]}, "properties": {"Name": "Sushi Ikenohana", "Address": "14308 SW Allen Blvd, Beaverton, OR 97005, USA", "Zip": "97005", "Price_Level(Google)": 2.0, "Rating(Google)": 4.5}}
,{"type": "Feature", "geometry": {"type": "Point", "coordinates": [-122.869, 45.515]}, "properties": {"Name": "Toshi Restaurant", "Address": "745 SW 185th Ave, Beaverton, OR 97006, USA", "Zip": "97006", "Price_Level(Google)": 2.0, "Rating(Google)": 4.5}}
,{"type": "Feature", "geometry": {"type": "Point", "coordinates": [-122.832, 45.43]}, "properties": {"Name": "Nikki Sushi & Steak", "Address": "15135 SW Barrows Rd #145, Beaverton, OR 97007, USA", "Zip": "97007", "Price_Level(Google)": 0.0, "Rating(Google)": 4.2}}
,{"type": "Feature", "geometry": {"type": "Point", "coordinates": [-122.809, 45.493]}, "properties": {"Name": "Sushi Me", "Address": "3655 SW Hall Blvd, Beaverton, OR 97005, USA", "Zip": "97005", "Price_Level(Google)": 0.0, "Rating(Google)": 4.0}}
,{"type": "Feature", "geometry": {"type": "Point", "coordinates": [-122.815, 45.489]}, "properties": {"Name": "Beaverton Black Bear Diner", "Address": "13435 SW Tualatin Valley Hwy, Beaverton, OR 97005, USA", "Zip": "97005", "Price_Level(Google)": 1.0, "Rating(Google)": 4.3}}
,{"type": "Feature", "geometry": {"type": "Point", "coordinates": [-122.832, 45.429]}, "properties": {"Name": "La Provence at Progress Ridge", "Address": "15151 SW Barrows Rd #153, Beaverton, OR 97007, USA", "Zip": "97007", "Price_Level(Google)": 0.0, "Rating(Google)": 4.3}}
,{"type": "Feature", "geometry": {"type": "Point", "coordinates": [-122.809, 45.489]}, "properties": {"Name": "Tom's Pancake House", "Address": "12925 SW Canyon Rd, Beaverton, OR 97005, USA", "Zip": "97005", "Price_Level(Google)": 2.0, "Rating(Google)": 4.2}}
,{"type": "Feature", "geometry": {"type": "Point", "coordinates": [-122.809, 45.494]}, "properties": {"Name": "Best Baguette", "Address": "3635 SW Hall Blvd, Beaverton, OR 97005, USA", "Zip": "97005", "Price_Level(Google)": 1.0, "Rating(Google)": 4.6}}
,{"type": "Feature", "geometry": {"type": "Point", "coordinates": [-122.886, 45.497]}, "properties": {"Name": "Sushi Zen", "Address": "20265 SW Tualatin Valley Hwy, Beaverton, OR 97006, USA", "Zip": "97006", "Price_Level(Google)": 2.0, "Rating(Google)": 4.4}}
,{"type": "Feature", "geometry": {"type": "Point", "coordinates": [-122.779, 45.487]}, "properties": {"Name": "McCormick's Fish House & Bar", "Address": "9945 SW Beaverton Hillsdale Hwy, Beaverton, OR 97005, USA", "Zip": "97005", "Price_Level(Google)": 0.0, "Rating(Google)": 3.9}}
,{"type": "Feature", "geometry": {"type": "Point", "coordinates": [-122.81, 45.492]}, "properties": {"Name": "Thai Bloom!", "Address": "3800 SW Cedar Hills Blvd, Beaverton, OR 97005, USA", "Zip": "97005", "Price_Level(Google)": 2.0, "Rating(Google)": 4.4}}
,{"type": "Feature", "geometry": {"type": "Point", "coordinates": [-122.844, 45.531]}, "properties": {"Name": "Taste Of Sichuan Beaverton", "Address": "16261 NW Cornell Rd, Beaverton, OR 97006, USA", "Zip": "97006", "Price_Level(Google)": 2.0, "Rating(Google)": 4.3}}
,{"type": "Feature", "geometry": {"type": "Point", "coordinates": [-122.806, 45.491]}, "properties": {"Name": "Siam Lotus Asian Kitchen & Bar", "Address": "12600 SW Cres St Suite 150, Beaverton, OR 97005, USA", "Zip": "97005", "Price_Level(Google)": 0.0, "Rating(Google)": 4.5}}
,{"type": "Feature", "geometry": {"type": "Point", "coordinates": [-122.806, 45.487]}, "properties": {"Name": "Decarli Restaurant", "Address": "4545 SW Watson Ave, Beaverton, OR 97005, USA", "Zip": "97005", "Price_Level(Google)": 2.0, "Rating(Google)": 4.4}}
,{"type": "Feature", "geometry": {"type": "Point", "coordinates": [-122.794, 45.461]}, "properties": {"Name": "The Fireside Grill", "Address": "8136 SW Hall Blvd, Beaverton, OR 97008, USA", "Zip": "97008", "Price_Level(Google)": 0.0, "Rating(Google)": 4.5}}
,{"type": "Feature", "geometry": {"type": "Point", "coordinates": [-122.802, 45.522]}, "properties": {"Name": "Kizuki Ramen & Izakaya", "Address": "11830 NW Cedar Falls Dr, Portland, OR 97229, USA", "Zip": "97229", "Price_Level(Google)": 0.0, "Rating(Google)": 4.4}}
,{"type": "Feature", "geometry": {"type": "Point", "coordinates": [-122.789, 45.489]}, "properties": {"Name": "Beaverton Swagat Indian Cuisine", "Address": "4325 SW 109th Ave, Beaverton, OR 97005, USA", "Zip": "97005", "Price_Level(Google)": 2.0, "Rating(Google)": 4.3}}
,{"type": "Feature", "geometry": {"type": "Point", "coordinates": [-122.769, 45.487]}, "properties": {"Name": "China Delight", "Address": "2434, 8975 SW Beaverton Hillsdale Hwy, Portland, OR 97225, United States", "Zip": "97225", "Price_Level(Google)": 2.0, "Rating(Google)": 4.1}}
,{"type": "Feature", "geometry": {"type": "Point", "coordinates": [-122.765, 45.485]}, "properties": {"Name": "Ernesto's Italian Restaurant", "Address": "8544 SW Apple Way, Portland, OR 97225, USA", "Zip": "97225", "Price_Level(Google)": 2.0, "Rating(Google)": 4.2}}
,{"type": "Feature", "geometry": {"type": "Point", "coordinates": [-122.81, 45.495]}, "properties": {"Name": "Veggie Grill", "Address": "3435 SW Cedar Hills Blvd, Beaverton, OR 97005, USA", "Zip": "97005", "Price_Level(Google)": 2.0, "Rating(Google)": 4.5}}
,{"type": "Feature", "geometry": {"type": "Point", "coordinates": [-122.748, 45.486]}, "properties": {"Name": "Thai Roses", "Address": "6850 SW Beaverton Hillsdale Hwy, Portland, OR 97225, USA", "Zip": "97225", "Price_Level(Google)": 2.0, "Rating(Google)": 4.2}}
,{"type": "Feature", "geometry": {"type": "Point", "coordinates": [-122.753, 45.516]}, "properties": {"Name": "Joy Wok", "Address": "7331 SW Barnes Rd, Portland, OR 97225, USA", "Zip": "97225", "Price_Level(Google)": 0.0, "Rating(Google)": 4.1}}
,{"type": "Feature", "geometry": {"type": "Point", "coordinates": [-122.666, 45.55]}, "properties": {"Name": "Kayo's Ramen Bar", "Address": "3808 N Williams Ave #124, Portland, OR 97227, USA", "Zip": "97227", "Price_Level(Google)": 1.0, "Rating(Google)": 4.5}}
,{"type": "Feature", "geometry": {"type": "Point", "coordinates": [-122.835, 45.555]}, "properties": {"Name": "Bethany Sushi", "Address": "4804 NW Bethany Blvd, Portland, OR 97229, USA", "Zip": "97229", "Price_Level(Google)": 2.0, "Rating(Google)": 4.3}}
,{"type": "Feature", "geometry": {"type": "Point", "coordinates": [-122.802, 45.522]}, "properties": {"Name": "Sushi Mioga", "Address": "11835 NW Cedar Falls Dr, Portland, OR 97229, USA", "Zip": "97229", "Price_Level(Google)": 0.0, "Rating(Google)": 4.0}}
,{"type": "Feature", "geometry": {"type": "Point", "coordinates": [-122.806, 45.524]}, "properties": {"Name": "Sun Grill Teriyaki", "Address": "421 NW Saltzman Rd, Portland, OR 97229, USA", "Zip": "97229", "Price_Level(Google)": 0.0, "Rating(Google)": 4.8}}
,{"type": "Feature", "geometry": {"type": "Point", "coordinates": [-122.862, 45.537]}, "properties": {"Name": "Sushi Town", "Address": "18033 NW Evergreen Pkwy, Hillsboro, OR 97006, USA", "Zip": "97006", "Price_Level(Google)": 2.0, "Rating(Google)": 3.8}}
,{"type": "Feature", "geometry": {"type": "Point", "coordinates": [-122.801, 45.486]}, "properties": {"Name": "Waba Restaurant", "Address": "12055 SW 1st St, Beaverton, OR 97005, USA", "Zip": "97005", "Price_Level(Google)": 0.0, "Rating(Google)": 4.3}}
,{"type": "Feature", "geometry": {"type": "Point", "coordinates": [-122.884, 45.536]}, "properties": {"Name": "Soba Teriyaki", "Address": "2308 NW Amberbrook Dr, Beaverton, OR 97006, USA", "Zip": "97006", "Price_Level(Google)": 0.0, "Rating(Google)": 4.1}}
,{"type": "Feature", "geometry": {"type": "Point", "coordinates": [-122.879, 45.537]}, "properties": {"Name": "Shogun Sushi", "Address": "9078, 2215 NW Allie Ave, Hillsboro, OR 97124, United States", "Zip": "97124", "Price_Level(Google)": 0.0, "Rating(Google)": 4.0}}
,{"type": "Feature", "geometry": {"type": "Point", "coordinates": [-122.8, 45.49]}, "properties": {"Name": "Zen Teriyaki", "Address": "11923 SW Canyon Rd, Beaverton, OR 97005, USA", "Zip": "97005", "Price_Level(Google)": 0.0, "Rating(Google)": 4.5}}
,{"type": "Feature", "geometry": {"type": "Point", "coordinates": [-122.865, 45.558]}, "properties": {"Name": "Teriyaki Woo", "Address": "18305 NW West Union Rd, Portland, OR 97229, USA", "Zip": "97229", "Price_Level(Google)": 0.0, "Rating(Google)": 4.7}}
,{"type": "Feature", "geometry": {"type": "Point", "coordinates": [-122.809, 45.489]}, "properties": {"Name": "Superbowl Teriyaki", "Address": "12865 SW Canyon Rd, Beaverton, OR 97005, USA", "Zip": "97005", "Price_Level(Google)": 0.0, "Rating(Google)": 4.5}}
,{"type": "Feature", "geometry": {"type": "Point", "coordinates": [-122.917, 45.535]}, "properties": {"Name": "Yuki Japanese Restaurant", "Address": "1335 NE Orenco Station Pkwy E, Hillsboro, OR 97124, USA", "Zip": "97124", "Price_Level(Google)": 2.0, "Rating(Google)": 4.3}}
,{"type": "Feature", "geometry": {"type": "Point", "coordinates": [-122.904, 45.538]}, "properties": {"Name": "Hot Pot 'N Sushi", "Address": "7212 NE Cornell Rd, Hillsboro, OR 97124, USA", "Zip": "97124", "Price_Level(Google)": 2.0, "Rating(Google)": 3.7}}
,{"type": "Feature", "geometry": {"type": "Point", "coordinates": [-122.907, 45.55]}, "properties": {"Name": "O Sushi", "Address": "7183 NE Imbrie Dr, Hillsboro, OR 97124, USA", "Zip": "97124", "Price_Level(Google)": 0.0, "Rating(Google)": 4.3}}
,{"type": "Feature", "geometry": {"type": "Point", "coordinates": [-122.871, 45.533]}, "properties": {"Name": "Wassabi", "Address": "1861 NW 188th Ave, Hillsboro, OR 97124, USA", "Zip": "97124", "Price_Level(Google)": 2.0, "Rating(Google)": 4.2}}
,{"type": "Feature", "geometry": {"type": "Point", "coordinates": [-122.477, 45.535]}, "properties": {"Name": "Sushi Village", "Address": "1676 NE 181st Ave, Portland, OR 97230, USA", "Zip": "97230", "Price_Level(Google)": 0.0, "Rating(Google)": 4.5}}
,{"type": "Feature", "geometry": {"type": "Point", "coordinates": [-122.537, 45.553]}, "properties": {"Name": "Yuki & Song Japanese Restaurant", "Address": "4240 NE 122nd Ave, Portland, OR 97230, USA", "Zip": "97230", "Price_Level(Google)": 0.0, "Rating(Google)": 4.3}}
,{"type": "Feature", "geometry": {"type": "Point", "coordinates": [-122.535, 45.527]}, "properties": {"Name": "Portland Teriyaki", "Address": "12427 NE Glisan St, Portland, OR 97230, USA", "Zip": "97230", "Price_Level(Google)": 0.0, "Rating(Google)": 4.4}}
,{"type": "Feature", "geometry": {"type": "Point", "coordinates": [-122.479, 45.533]}, "properties": {"Name": "Joy Teriyaki", "Address": "1407 NE 181st Ave, Portland, OR 97230, USA", "Zip": "97230", "Price_Level(Google)": 2.0, "Rating(Google)": 4.0}}
,{"type": "Feature", "geometry": {"type": "Point", "coordinates": [-122.816, 45.859]}, "properties": {"Name": "Miyako Restaurant", "Address": "1835 Columbia Blvd, St Helens, OR 97051, USA", "Zip": "97051", "Price_Level(Google)": 2.0, "Rating(Google)": 4.5}}
,{"type": "Feature", "geometry": {"type": "Point", "coordinates": [-122.928, 45.52]}, "properties": {"Name": "Hero Sushi", "Address": "5309 W Baseline Rd, Hillsboro, OR 97123, USA", "Zip": "97123", "Price_Level(Google)": 0.0, "Rating(Google)": 4.6}}
,{"type": "Feature", "geometry": {"type": "Point", "coordinates": [-122.958, 45.532]}, "properties": {"Name": "Sushi & Maki", "Address": "2401 NE Cornell Rd, Hillsboro, OR 97124, USA", "Zip": "97124", "Price_Level(Google)": 2.0, "Rating(Google)": 4.4}}
,{"type": "Feature", "geometry": {"type": "Point", "coordinates": [-122.988, 45.524]}, "properties": {"Name": "Syun Izakaya", "Address": "209 NE Lincoln St, Hillsboro, OR 97124, USA", "Zip": "97124", "Price_Level(Google)": 2.0, "Rating(Google)": 4.6}}
,{"type": "Feature", "geometry": {"type": "Point", "coordinates": [-122.68, 45.52]}, "properties": {"Name": "Bonsai By Sake Japanese & Thai Cuisine", "Address": "615 SW Broadway, Portland, OR 97205, USA", "Zip": "97205", "Price_Level(Google)": 0.0, "Rating(Google)": 4.2}}
,{"type": "Feature", "geometry": {"type": "Point", "coordinates": [-122.62, 45.535]}, "properties": {"Name": "Bluefin Sushi Bar", "Address": "4138 NE Broadway St, Portland, OR 97232, USA", "Zip": "97232", "Price_Level(Google)": 2.0, "Rating(Google)": 4.4}}
,{"type": "Feature", "geometry": {"type": "Point", "coordinates": [-122.656, 45.532]}, "properties": {"Name": "Stanford's", "Address": "913 Lloyd Center, Portland, OR 97232, USA", "Zip": "97232", "Price_Level(Google)": 2.0, "Rating(Google)": 3.7}}
,{"type": "Feature", "geometry": {"type": "Point", "coordinates": [-122.495, 45.505]}, "properties": {"Name": "Ichi Teriyaki 23", "Address": "16255 SE Division St, Portland, OR 97236, USA", "Zip": "97236", "Price_Level(Google)": 0.0, "Rating(Google)": 4.2}}
,{"type": "Feature", "geometry": {"type": "Point", "coordinates": [-122.439, 45.505]}, "properties": {"Name": "Sushiville", "Address": "663 NW Division St, Gresham, OR 97030, USA", "Zip": "97030", "Price_Level(Google)": 1.0, "Rating(Google)": 3.2}}
,{"type": "Feature", "geometry": {"type": "Point", "coordinates": [-122.51, 45.498]}, "properties": {"Name": "Charlie's Teriyaki", "Address": "14800 SE Powell Blvd # 2, Portland, OR 97236, USA", "Zip": "97236", "Price_Level(Google)": 0.0, "Rating(Google)": 3.3}}
,{"type": "Feature", "geometry": {"type": "Point", "coordinates": [-122.475, 45.489]}, "properties": {"Name": "Yami Sushi & Teriyaki", "Address": "1064 SW Highland Dr, Gresham, OR 97080, USA", "Zip": "97080", "Price_Level(Google)": 0.0, "Rating(Google)": 4.6}}
,{"type": "Feature", "geometry": {"type": "Point", "coordinates": [-122.537, 45.428]}, "properties": {"Name": "Fuji's Clackamas", "Address": "12270 SE Sunnyside Rd, Clackamas, OR 97015, USA", "Zip": "97015", "Price_Level(Google)": 2.0, "Rating(Google)": 4.4}}
,{"type": "Feature", "geometry": {"type": "Point", "coordinates": [-122.501, 45.428]}, "properties": {"Name": "Sushi Moto", "Address": "15725 SE Happy Valley Town Center Dr, Happy Valley, OR 97015, USA", "Zip": "97015", "Price_Level(Google)": 0.0, "Rating(Google)": 3.9}}
,{"type": "Feature", "geometry": {"type": "Point", "coordinates": [-122.577, 45.502]}, "properties": {"Name": "O'Sushi", "Address": "2838 SE 82nd Ave, Portland, OR 97266, USA", "Zip": "97266", "Price_Level(Google)": 0.0, "Rating(Google)": 3.9}}
,{"type": "Feature", "geometry": {"type": "Point", "coordinates": [-122.579, 45.471]}, "properties": {"Name": "Happy Teriyaki", "Address": "7217 SE 82nd Ave, Portland, OR 97266, USA", "Zip": "97266", "Price_Level(Google)": 0.0, "Rating(Google)": 4.2}}
,{"type": "Feature", "geometry": {"type": "Point", "coordinates": [-122.578, 45.493]}, "properties": {"Name": "Happy Teriyaki", "Address": "4104 SE 82nd Ave, Portland, OR 97266, USA", "Zip": "97266", "Price_Level(Google)": 0.0, "Rating(Google)": 4.2}}
]}